[
  {
    "id": "7b9453e",
    "isEnabled": true,
    "name": "Rotterdam",
    "difficulty": 5,
    "latitude": 51.9123495,
    "longitude": 4.4830536,
    "clues": [
      "Name on building to the north-north-east",
      "Bikes",
      "Driving on the right"
    ]
  },
  {
    "id": "723431c",
    "isEnabled": true,
    "name": "Marseille",
    "difficulty": 3,
    "latitude": 43.3051315,
    "longitude": 5.3806031,
    "clues": [
      "Name on sign to university",
      "South of France feel"
    ]
  },
  {
    "id": "0cf9997",
    "isEnabled": false,
    "name": "Sofia",
    "difficulty": 8,
    "latitude": 42.6974833,
    "longitude": 23.3220823,
    "clues": [
      "Name on barrier, right of Jesus",
      "Flag",
      "Cyrillic and Latin characters"
    ]
  },
  {
    "id": "cf3ff15",
    "isEnabled": true,
    "name": "Sofia",
    "difficulty": 7,
    "latitude": 42.6979111,
    "longitude": 23.3218663,
    "clues": [
      "\"Sofia Hotel Balkan\" to the south-south-west, on the roof",
      "\"Bulbank\" and \".bg\" website",
      "Flag",
      "Cyrillic and Latin characters"
    ]
  },
  {
    "id": "88376cd",
    "isEnabled": true,
    "name": "Vienna",
    "difficulty": 9,
    "latitude": 48.22213,
    "longitude": 16.3977179,
    "clues": [
      "Zurich insurance trickery"
    ]
  },
  {
    "id": "d282f31",
    "isEnabled": true,
    "name": "Sydney",
    "difficulty": 4,
    "latitude": -33.891112,
    "longitude": 151.2743281,
    "clues": [
      "Name in Sydney's Best Fish and Chips"
    ]
  },
  {
    "id": "83751fe",
    "isEnabled": true,
    "name": "Geneva",
    "difficulty": 2,
    "latitude": 46.2079471,
    "longitude": 6.14877,
    "clues": [
      "Jet d'Eau",
      "Swiss flag"
    ]
  },
  {
    "id": "b0a8a17",
    "isEnabled": true,
    "name": "Geneva",
    "difficulty": 7,
    "latitude": 46.2113501,
    "longitude": 6.1525779,
    "clues": [
      "Jet d'Eau",
      "Name in \"Genevoiseries?\""
    ]
  },
  {
    "id": "7630e90",
    "isEnabled": true,
    "name": "Rio de Janeiro",
    "difficulty": 6,
    "latitude": -22.9074212,
    "longitude": -43.1269323,
    "clues": [
      "No name",
      "Sugar Loaf",
      "Canadian red herring"
    ]
  },
  {
    "id": "99b5ff7",
    "isEnabled": true,
    "name": "Macau",
    "difficulty": 6,
    "latitude": 22.1896926,
    "longitude": 113.5472438,
    "clues": [
      "Canadian College of Macau",
      "\"Macau\" on the taxi",
      "Casinos!",
      "Portugese and Chinese"
    ]
  },
  {
    "id": "965ad95",
    "isEnabled": true,
    "name": "New York City",
    "difficulty": 4,
    "latitude": 40.7196447,
    "longitude": -73.9962544,
    "clues": [
      "\"Mott NYC\" to the north-north-east",
      "\"NYC\" on the poster at 158 (south-west)",
      "Fire escapes!",
      "Vehicles",
      "Chinatown in Manhattan"
    ]
  }
]
