{
  "7b9453e": {
    "name": "Rotterdam",
    "notes": [
      "Name on building to the north-north-east",
      "Bikes",
      "Driving on the right"
    ],
    "difficulty": 5,
    "latitude": 51.9123495,
    "longitude": 4.4830536
  },

  "723431c": {
    "name": "Marseille",
    "notes": [
      "Name on sign to university",
      "South of France feel"
    ],
    "difficulty": 3,
    "latitude": 43.3051315,
    "longitude": 5.3806031
  },

  "--0cf9997": {
    "name": "Sofia",
    "notes": [
      "Name on barrier, right of Jesus",
      "Flag",
      "Cyrillic and English"
    ],
    "difficulty": 8,
    "latitude": 42.6974833,
    "longitude": 23.3220823
  },

  "88376cd": {
    "name": "Vienna",
    "notes": [
      "Zurich insurance trickery"
    ],
    "difficulty": 9,
    "latitude": 48.22213,
    "longitude": 16.3977179
  },

  "d282f31": {
    "name": "Sydney",
    "notes": [
      "Name in Sydney's Best Fish and Chips"
    ],
    "difficulty": 4,
    "latitude": -33.891112,
    "longitude": 151.2743281
  },

  "83751fe": {
    "name": "Geneva",
    "notes": [
      "Jet d'Eau",
      "Swiss flag"
    ],
    "difficulty": 2,
    "latitude": 46.2079471,
    "longitude": 6.14877
  },

  "b0a8a17": {
    "name": "Geneva",
    "notes": [
      "Jet d'Eau",
      "Name in \"Genevoiseries?\""
    ],
    "difficulty": 7,
    "latitude": 46.2113501,
    "longitude": 6.1525779
  },

  "7630e90": {
    "name": "Rio de Janeiro",
    "notes": [
      "No name",
      "Sugar Loaf",
      "Canadian red herring"
    ],
    "difficulty": 6,
    "latitude": -22.9074212,
    "longitude": -43.1269323
  },

  "99b5ff7": {
    "name": "Macau",
    "notes": [
      "Canadian College of Macau",
      "Portugese and Chinese",
      "Casinos"
    ],
    "difficulty": 6,
    "latitude": 22.1896926,
    "longitude": 113.5472438
  }
}
